{
  "data": [
    {
      "_id": "56c66be5a73e492741506f4c",
      "name": "McLean 2",
      "geocode": {
        "lng": -77.17829449999999,
        "lat": 38.932887
      },
      "accessibility": false,
      "hours": [
        "24 hours a day, 7 days a week"
      ],
      "address": {
        "state": "VA",
        "zip": "22101",
        "city": "McLean",
        "street_name": "Chain Bridge Road",
        "street_number": "1439"
      },
      "language_list": [
        "Portuguese",
        "Korean",
        "Spanish",
        "Chinese",
        "French",
        "English"
      ],
      "amount_left": 444425
    },
    {
      "_id": "56c66be5a73e492741506f4d",
      "name": "McLean 3",
      "geocode": {
        "lng": -77.17829449999999,
        "lat": 38.932887
      },
      "accessibility": true,
      "hours": [
        "24 hours a day, 7 days a week"
      ],
      "address": {
        "state": "VA",
        "zip": "22101",
        "city": "McLean",
        "street_name": "Chain Bridge Road",
        "street_number": "1439"
      },
      "language_list": [
        "Korean",
        "English"
      ],
      "amount_left": 701216
    },
    {
      "_id": "56c66be5a73e492741506f4b",
      "name": "McLean 1",
      "geocode": {
        "lng": -77.17829449999999,
        "lat": 38.932887
      },
      "accessibility": true,
      "hours": [
        "24 hours a day, 7 days a week"
      ],
      "address": {
        "state": "VA",
        "zip": "22101",
        "city": "McLean",
        "street_name": "Chain Bridge Road",
        "street_number": "1439"
      },
      "language_list": [
        "English"
      ],
      "amount_left": 273775
    },
    {
      "_id": "56c66be5a73e492741506f54",
      "name": "Dolley Madison 1",
      "geocode": {
        "lng": -77.1823211,
        "lat": 38.9380881
      },
      "accessibility": false,
      "hours": [
        "24 hours a day, 7 days a week"
      ],
      "address": {
        "state": "VA",
        "zip": "22101",
        "city": "McLean",
        "street_name": "Elm Street",
        "street_number": "6890"
      },
      "language_list": [
        "English"
      ],
      "amount_left": 546950
    },
    {
      "_id": "56c66be5a73e492741506f56",
      "name": "Dolley Madison 3",
      "geocode": {
        "lng": -77.1823211,
        "lat": 38.9380881
      },
      "accessibility": false,
      "hours": [
        "24 hours a day, 7 days a week"
      ],
      "address": {
        "state": "VA",
        "zip": "22101",
        "city": "McLean",
        "street_name": "Elm Street",
        "street_number": "6890"
      },
      "language_list": [
        "French",
        "Spanish",
        "Korean",
        "Portuguese",
        "Chinese",
        "Hindustani",
        "English"
      ],
      "amount_left": 596903
    },
    {
      "_id": "56c66be5a73e492741506f55",
      "name": "Dolley Madison 2",
      "geocode": {
        "lng": -77.1823211,
        "lat": 38.9380881
      },
      "accessibility": false,
      "hours": [
        "24 hours a day, 7 days a week"
      ],
      "address": {
        "state": "VA",
        "zip": "22101",
        "city": "McLean",
        "street_name": "Elm Street",
        "street_number": "6890"
      },
      "language_list": [
        "Chinese",
        "Korean",
        "French",
        "Hindustani",
        "Spanish",
        "English"
      ],
      "amount_left": 278569
    }
  ],
  "paging": {
    "previous": "/atms?lat=38.9283&lng=-77.1753&rad=1&key=f25b717db9ea19d1e050f291fa1f2643&page=1",
    "next": "/atms?lat=38.9283&lng=-77.1753&rad=1&key=f25b717db9ea19d1e050f291fa1f2643&page=2"
  }
}

